{"type": "FeatureCollection", "features": [{"geometry": {"type": "Point", "coordinates": [11.586361, 50.927206]}, "type": "Feature", "properties": {"city": "Jena", "name": "Freifunk Jena", "url": "http://freifunk-jena.de", "ml": "ffj@freifunk-jena.de", "twitter": "https://twitter.com/freifunk_jena", "facebook": "https://www.facebook.com/FreifunkJena", "mtime": 1373802961, "nodes": 10, "jabber": "me", "email": "post@freifunk-jena.de"}}, {"geometry": {"type": "Point", "coordinates": [8.532949090003967, 52.03830232105035]}, "type": "Feature", "properties": {"city": "Bielefeld", "name": "Freifunk Bielefeld", "url": "http://freifunk-bielefeld.de", "ml": "freifunk-bielefeld@googlegroups.com", "mtime": 1373736106, "address": {"Street": "Sudbrackstra\u00dfe 42", "Name": "Hackerspace Bielefeld", "Zipcode": "33611"}, "nodes": 30, "irc": "freifunk-bielefeld@conference.jabber.ccc.de"}}, {"geometry": {"type": "Point", "coordinates": [11.338675, 50.98953]}, "type": "Feature", "properties": {"city": "Weimar", "name": "weimarnetz", "url": "http://www.weimarnetz.de", "ml": "wireless-discuss@subsignal.org", "mtime": 1368711578, "phone": "+493643544304", "facebook": "https://www.facebook.com/weimarnetz", "address": {"Street": "Marienstr. 18", "Name": "Maschinenraum", "Zipcode": "99423"}, "nodes": 49}}, {"geometry": {"type": "Point", "coordinates": [7.211111, 51.259167]}, "type": "Feature", "properties": {"city": "Wuppertal", "name": "Freifunk Wuppertal", "url": "https://www.freifunk-wuppertal.net", "ml": "wuppertal@mailman.freifunk-rheinland.net", "twitter": "https://twitter.com/ffwtal", "mtime": 1373416754, "events": [{"timestamp": 1375894800, "location": "Loge Wuppertal, Alter Markt 28, 42275 Wuppertal", "title": "Freifunkertreffen Wuppertal"}, {"timestamp": 1378314000, "location": "Loge Wuppertal, Alter Markt 28, 42275 Wuppertal", "title": "Freifunkertreffen Wuppertal"}, {"timestamp": 1380733200, "location": "Loge Wuppertal, Alter Markt 28, 42275 Wuppertal", "title": "Freifunkertreffen Wuppertal"}], "phone": "+4920226135028", "facebook": "https://www.facebook.com/FreifunkWuppertal", "metacommunity": "Freifunk Rheinland e.V.", "nodes": 26, "email": "de "}}]}
